72,125,33,72,30,190,31,77,12,288,*66
$GLGSV,2,2,08,78,11,342,,85,26,114,29,86,73,050,33,87,31,316,38*6C
$GNGLL,4555.95290,N,06639.17919,W,175729.00,A,A*61
$GNRMC,175730.00,A,4555.95291,N,06639.17924,W,0.063,,060917,,,A*73
$GNVTG,,T,,M,0.063,N,0.117,K,A*3F
$GNGGA,175730.00,4555.95291,N,06639.17924,W,1,12,0.77,116.2,M,-26.0,M,,*7D
$GNGSA,A,3,06,02,19,12,09,17,05,23,25,,,,1.55,0.77,1.34*18
$GNGSA,A,3,86,71,85,87,72,,,,,,,,1.55,0.77,1.34*14
$GPGSV,4,1,13,02,62,295,33,05,27,221,41,06,65,063,36,09,34,082,38*78
$GPGSV,4,2,13,12,37,263,36,17,22,139,11,19,43,139,30,23,22,052,16*73
$GPGSV,4,3,13,25,25,305,34,29,02,314,20,46,30,221,30,48,08,253,*73
$GPGSV,4,4,13,51,24,230,36*4D
$GLGSV,2,1,08,70,36,038,17,71,72,125,34,72,30,190,32,77,12,288,*6D
$GLGSV,2,2,08,78,11,342,,85,26,114,30,86,73,050,34,87,31,316,40*6C
$GNGLL,4555.95291,N,06639.17924,W,175730.00,A,A*66
$GNRMC,175731.00,A,4555.95290,N,06639.17932,W,0.201,,060917,,,A*72
$GNVTG,,T,,M,0.201,N,0.373,K,A*39
$GNGGA,175731.00,4555.95290,N,06639.17932,W,1,12,0.74,116.3,M,-26.0,M,,*78
$GNGSA,A,3,06,02,19,12,09,17,05,23,25,,,,1.48,0.74,1.28*1A
$GNGSA,A,3,86,71,85,87,72,,,,,,,,1.48,0.74,1.28*16
$GPGSV,4,1,13,02,62,295,29,05,27,221,36,06,65,063,39,09,34,082,30*74
$GPGSV,4,2,13,12,37,263,28,17,22,139,17,19,43,139,29,23,22,052,29*7E
$GPGSV,4,3,13,25,25,305,37,29,02,314,20,46,30,221,29,48,08,253,*78
$GPGSV,4,4,13,51,24,230,36*4D
$GLGSV,2,1,08,70,36,038,22,71,72,125,33,72,30,190,34,77,12,288,*6A
$GLGSV,2,2,08,78,11,342,,85,26,114,28,86,73,050,34,87,31,316,29*6A
$GNGLL,4555.95290,N,06639.17932,W,175731.00,A,A*61
$GNRMC,175732.00,A,4555.95314,N,06639.17943,W,1.299,329.07,060917,,,A*6B
$GNVTG,329.07,T,,M,1.299,N,2.406,K,A*2F
$GNGGA,175732.00,4555.95314,N,06639.17943,W,1,12,0.74,116.0,M,-26.0,M,,*73
$GNGSA,A,3,06,02,19,12,09,17,05,23,25,,,,1.48,0.74,1.28*1A
$GNGSA,A,3,86,71,85,87,72,,,,,,,,1.48,0.74,1.28*16
$GPGSV,4,1,13,02,62,295,31,05,27,221,31,06,65,063,38,09,34,082,33*78
$GPGSV,4,2,13,12,37,263,39,17,22,139,17,19,43,139,28,23,22,052,28*7E
$GPGSV,4,3,13,25,25,305,35,29,02,314,20,46,30,221,30,48,08,253,*72
$GPGSV,4,4,13,51,24,230,32*49
$GLGSV,2,1,08,70,36,038,22,71,72,125,32,72,30,190,30,77,12,288,*6F
$GLGSV,2,2,08,78,11,342,,85,26,114,29,86,73,050,33,87,31,316,37*63
$GNGLL,4555.95314,N,06639.17943,W,175732.00,A,A*69
$GNRMC,175733.00,A,4555.95341,N,06639.18002,W,2.163,306.00,060917,,,A*66
$GNVTG,306.00,T,,M,2.163,N,4.005,K,A*21
$GNGGA,175733.00,4555.95341,N,06639.18002,W,1,12,0.74,115.6,M,-26.0,M,,*74
$GNGSA,A,3,06,02,19,12,09,17,05,23,25,,,,1.48,0.74,1.28*1A
$GNGSA,A,3,86,71,85,87,72,,,,,,,,1.48,0.74,1.28*16
$GPGSV,4,1,13,02,62,295,39,05,27,221,31,06,65,063,32,09,34,082,28*70
$GPGSV,4,2,13,12,37,263,35,17,22,139,33,19,43,139,36,23,22,052,32*70
$GPGSV,4,3,13,25,25,305,35,29,02,314,20,46,30,221,33,48,08,253,*71
$GPGSV,4,4,13,51,24,230,37*4C
$GLGSV,2,1,08,70,36,038,21,71,72,125,26,72,30,190,30,77,12,288,*69
$GLGSV,2,2,08,78,11,342,,85,26,114,23,86,73,050,29,87,31,316,39*6C
$GNGLL,4555.95341,N,06639.18002,W,175733.00,A,A*6B
$GNRMC,175734.00,A,4555.95372,N,06639.18095,W,2.793,295.62,060917,,,A*69
$GNVTG,295.62,T,,M,2.793,N,5.173,K,A*26
$GNGGA,175734.00,4555.95372,N,06639.18095,W,1,12,0.74,115.4,M,-26.0,M,,*7F
$GNGSA,A,3,06,02,19,12,09,17,05,23,25,,,,1.48,0.74,1.28*1A
$GNGSA,A,3,86,71,85,87,72,,,,,,,,1.48,0.74,1.28*16
$GPGSV,4,1,13,02,62,295,40,05,27,221,33,06,65,063,31,09,34,082,27*70
$GPGSV,4,2,13,12,37,263,43,17,22,139,34,19,43,139,35,23,22,052,30*77
$GPGSV,4,3,13,25,25,305,35,29,02,314,19,46,30,221,34,48,08,253,*7C
$GPGSV,4,4,13,51,24,230,37*4C
$GLGSV,2,1,08,70,36,038,23,71,72,125,25,72,30,190,33,77,12,288,24*6D
$GLGSV,2,2,08,78,11,342,,85,26,114,25,86,73,050,30,87,31,316,38*63
$GNGLL,4555.95372,N,06639.18095,W,175734.00,A,A*62
$GNRMC,175735.00,A,4555.95402,N,06639.18193,W,2.777,296.09,060917,,,A*6B
$GNVTG,296.09,T,,M,2.777,N,5.143,K,A*21
$GNGGA,175735.00,4555.95402,N,06639.18193,W,1,12,0.74,115.1,M,-26.0,M,,*7C
$GNGSA,A,3,06,02,19,12,09,17,05,23,25,,,,1.48,0.74,1.28*1A
$GNGSA,A,3,86,71,85,87,72,,,,,,,,1.48,0.74,1.28*16
$GPGSV,4,1,13,02,62,295,39,05,27,221,30,06,65,063,30,09,34,082,26*7D
$GPGSV,4,2,13,12,37,263,40,17,22,139,38,19,43,139,37,23,22,052,23*78
$GPGSV,4,3,13,25,25,305,27,29,02,314,18,46,30,221,29,48,08,253,*72
$GPGSV,4,4,13,51,24,230,33*48
$GLGSV,2,1,08,70,36,038,23,71,72,125,25,72,30,190,28,77,12,288,22*61
$GLGSV,2,2,08,78,11,342,,85,26,114,32,86,73,050,30,87,31,316,33*6E
$GNGLL,4555.95402,N,06639.18193,W,175735.00,A,A*64
$GNRMC,175736.00,A,4555.95437,N,06639.18284,W,2.715,299.39,060917,,,A*63
$GNVTG,299.39,T,,M,2.715,N,5.027,K,A*2A
$GNGGA,175736.00,4555.95437,N,06639.18284,W,1,12,0.77,114.8,M,-26.0,M,,*77
$GNGSA,A,3,06,02,19,12,09,17,05,23,25,,,,1.50,0.77,1.29*11
$GNGSA,A,3,86,71,85,77,87,72,,,,,,,1.50,0.77,1.29*1D
$GPGSV,4,1,13,02,62,295,39,05,27,221,31,06,65,063,30,09,34,082,26*7C
$GPGSV,4,2,13,12,37,263,37,17,22,139,37,19,43,139,36,23,22,052,24*71
$GPGSV,4,3,13,25,25,305,32,29,02,314,18,46,30,221,28,48,08,253,*77
$GPGSV,4,4,13,51,24,230,33*48
$GLGSV,2,1,08,70,36,038,22,71,72,125,24,72,30,190,27,77,12,288,21*6D
$GLGSV,2,2,08,78,11,342,,85,26,114,32,86,73,050,30,87,31,316,32*6F
$GNGLL,4555.95437,N,06639.18284,W,175736.00,A,A*64
$GNRMC,175737.00,A,4555.95473,N,06639.18381,W,2.768,300.79,060917,,,A*69
$GNVTG,300.79,T,,M,2.768,N,5.127,K,A*24
$GNGGA,175737.00,4555.95473,N,06639.18381,W,1,12,0.74,114.8,M,-26.0,M,,*71
$GNGSA,A,3,06,02,19,12,09,17,05,23,25,,,,1.48,0.74,1.28*1A
$GNGSA,A,3,86,71,85,77,87,72,,,,,,,1.48,0.74,1.28*16
$GPGSV,4,1,13,02,62,295,35,05,27,221,38,06,65,063,29,09,34,082,31*77
$GPGSV,4,2,13,12,37,263,43,17,21,140,36,19,43,139,33,23,22,052,26*79
$GPGSV,4,3,13,25,25,305,32,29,02,314,16,46,30,221,27,48,08,253,*76
$GPGSV,4,4,13,51,24,230,36*4D
$GLGSV,2,1,08,70,36,038,22,71,72,125,30,72,30,190,27,77,12,288,22*6B
$GLGSV,2,2,08,78,11,342,,85,26,114,33,86,73,050,31,87,31,316,28*64
$GNGLL,4555.95473,N,06639.18381,W,175737.00,A,A*61
$GNRMC,175738.00,A,4555.95520,N,06639.18470,W,2.939,306.79,060917,,,A*64
$GNVTG,306.79,T,,M,2.939,N,5.444,K,A*28
$GNGGA,175738.00,4555.95520,N,06639.18470,W,1,12,0.74,115.0,M,-26.0,M,,*79
$GNGSA,A,3,06,02,19,12,09,17,05,23,25,,,,1.48,0.74,1.28*1A
$GNGSA,A,3,86,71,85,77,87,72,,,,,,,1.48,0.74,1.28*16
$GPGSV,4,1,13,02,62,295,40,05,27,221,29,06,65,063,35,09,34,082,29*71
$GPGSV,4,2,13,12,37,263,32,17,21,140,35,19,43,139,36,23,22,052,26*79
$GPGSV,4,3,13,25,25,305,40,29,02,314,,46,30,221,28,48,08,253,*7B
$GPGSV,4,4,13,51,24,230,36*4D
$GLGSV,2,1,08,70,36,038,21,71,72,125,28,72,30,190,35,77,12,288,20*60
$GLGSV,2,2,08,78,11,342,,85,26,114,29,86,73,050,30,87,31,316,33*64
$GNGLL,4555.95520,N,06639.18470,W,175738.00,A,A*60
$GNRMC,175739.00,A,4555.95591,N,06639.18525,W,3.058,330.88,060917,,,A*6A
$GNVTG,330.88,T,,M,3.058,N,5.663,K,A*2B
$GNGGA,175739.00,4555.95591,N,06639.18525,W,1,12,0.74,114.9,M,-26.0,M,,*7B
$GNGSA,A,3,06,02,19,12,09,17,05,23,25,,,,1.48,0.74,1.28*1A
$GNGSA,A,3,86,71,85,77,87,72,,,,,,,1.48,0.74,1.28*16
$GPGSV,4,1,13,02,62,295,40,05,27,221,40,06,65,063,37,09,34,082,29*7C
$GPGSV,4,2,13,12,37,263,31,17,21,140,33,19,42,140,25,23,22,052,27*70
$GPGSV,4,3,13,25,25,305,40,29,02,314,,46,30,221,32,48,08,253,*70
$GPGSV,4,4,13,51,24,230,38*43
$GLGSV,2,1,08,70,36,038,22,71,72,125,26,72,30,190,28,77,12,288,20*61
$GLGSV,2,2,08,78,11,342,,85,26,114,20,86,73,050,35,87,31,316,39*62
$GNGLL,4555.95591,N,06639.18525,W,175739.00,A,A*6A
$GNRMC,175740.00,A,4555.95665,N,06639.18502,W,2.996,357.52,060917,,,A*65
$GNVTG,357.52,T,,M,2.996,N,5.548,K,A*2D
$GNGGA,175740.00,4555.95665,N,06639.18502,W,1,12,0.74,114.9,M,-26.0,M,,*78
$GNGSA,A,3,06,02,19,12,09,17,05,23,25,,,,1.48,0.74,1.28*1A
$GNGSA,A,3,86,71,85,77,87,72,,,,,,,1.48,0.74,1.28*16
$GPGSV,4,1,13,02,62,295,34,05,27,221,35,06,65,063,35,09,34,082,29*7F
$GPGSV,4,2,13,12,37,263,36,17,21,140,27,19,42,140,30,23,22,052,26*77
$GPGSV,4,3,13,25,25,305,34,29,02,314,,46,30,221,32,48,08,253,*73
$GPGSV,4,4,13,51,24,230,34*4F
$GLGSV,2,1,08,70,36,038,22,71,72,125,33,72,30,190,28,77,12,288,19*6F
$GLGSV,2,2,08,78,11,342,,85,26,114,21,86,73,050,33,87,31,316,28*65
$GNGLL,4555.95665,N,06639.18502,W,175740.00,A,A*69
$GNRMC,175741.00,A,4555.95752,N,06639.18441,W,3.422,16.95,060917,,,A*59
$GNVTG,16.95,T,,M,3.422,N,6.337,K,A*1E
$GNGGA,175741.00,4555.95752,N,06639.18441,W,1,12,0.74,114.5,M,-26.0,M,,*76
$GNGSA,A,3,06,02,19,12,09,17,05,23,25,,,,1.48,0.74,1.28*1A
$GNGSA,A,3,86,71,85,77,87,72,,,,,,,1.48,0.74,1.28*16
$GPGSV,4,1,13,02,62,295,37,05,27,221,36,06,65,063,39,09,34,082,33*78
$GPGSV,4,2,13,12,37,263,38,17,21,140,27,19,42,140,34,23,22,052,33*79
$GPGSV,4,3,13,25,25,305,34,29,02,314,,46,30,221,30,48,08,253,*71
$GPGSV,4,4,13,51,24,230,32*49
$GLGSV,2,1,08,70,36,038,24,71,72,125,29,72,30,190,29,77,12,288,17*6D
$GLGSV,2,2,08,78,11,342,,85,26,114,30,86,73,050,36,87,31,316,27*6F
$GNGLL,4555.95752,N,06639.18441,W,175741.00,A,A*6B
$GNRMC,175742.00,A,4555.95830,N,06639.18378,W,3.280,26.30,060917,,,A*5E
$GNVTG,26.30,T,,M,3.280,N,6.074,K,A*18
$GNGGA,175742.00,4555.95830,N,06639.18378,W,1,12,0.74,114.5,M,-26.0,M,,*73
$GNGSA,A,3,06,02,19,12,09,17,05,23,25,,,,1.48,0.74,1.28*1A
$GNGSA,A,3,86,71,85,77,87,72,,,,,,,1.48,0.74,1.28*16
$GPGSV,4,1,13,02,62,295,37,05,27,221,37,06,65,063,32,09,34,082,31*70
$GPGSV,4,2,13,12,37,263,33,17,21,140,31,19,42,140,33,23,22,052,27*77
$GPGSV,4,3,13,25,25,305,38,29,02,314,,46,30,221,30,48,08,253,*7D
$GPGSV,4,4,13,51,24,230,34*4F
$GLGSV,2,1,08,70,36,038,25,71,72,125,29,72,30,190,28,77,12,288,18*62
$GLGSV,2,2,08,78,11,342,,85,26,114,30,86,73,050,34,87,31,316,27*6D
$GNGLL,4555.95830,N,06639.18378,W,175742.00,A,A*6E
$GNRMC,175743.00,A,4555.95892,N,06639.18315,W,2.643,30.73,060917,,,A*56
$GNVTG,30.73,T,,M,2.643,N,4.894,K,A*16
$GNGGA,175743.00,4555.95892,N,06639.18315,W,1,12,0.74,114.4,M,-26.0,M,,*70
$GNGSA,A,3,06,02,19,12,09,17,05,23,25,,,,1.48,0.74,1.28*1A
$GNGSA,A,3,86,71,85,77,87,72,,,,,,,1.48,0.74,1.28*16
$GPGSV,4,1,13,02,62,295,32,05,27,221,37,06,65,063,29,09,34,082,26*79
$GPGSV,4,2,13,12,37,263,38,17,21,140,27,19,42,140,30,23,22,052,26*79
$GPGSV,4,3,13,25,25,305,38,29,02,314,,46,30,221,28,48,08,253,*74
$GPGSV,4,4,13,51,24,230,34*4F
$GLGSV,2,1,08,70,36,038,24,71,72,125,29,72,30,190,27,77,12,288,19*6D
$GLGSV,2,2,08,78,11,342,,85,26,114,22,86,73,050,30,87,31,316,27*6A
$GNGLL,4555.95892,N,06639.18315,W,175743.00,A,A*6C
$GNRMC,175744.00,A,4555.95957,N,06639.18260,W,2.988,32.35,060917,,,A*52
$GNVTG,32.35,T,,M,2.988,N,5.534,K,A*18
$GNGGA,175744.00,4555.95957,N,06639.18260,W,1,12,0.74,114.5,M,-26.0,M,,*7D
$GNGSA,A,3,06,02,19,12,09,17,05,23,25,,,,1.48,0.74,1.28*1A
$GNGSA,A,3,86,71,85,77,87,72,,,,,,,1.48,0.74,1.28*16
$GPGSV,4,1,13,02,62,295,27,05,27,221,38,06,65,063,41,09,34,082,32*79
$GPGSV,4,2,13,12,37,263,40,17,21,140,26,19,42,140,34,23,22,052,28*7D
$GPGSV,4,3,13,25,25,305,38,29,02,314,,46,30,221,27,48,08,253,*7B
$GPGSV,4,4,13,51,24,230,35*4E
$GLGSV,2,1,08,70,36,038,22,71,72,125,31,72,30,190,27,77,12,288,19*62
$GLGSV,2,2,08,78,11,342,,85,26,114,23,86,73,050,34,87,31,316,27*6F
$GNGLL,4555.95957,N,06639.18260,W,175744.00,A,A*60
$GNRMC,175745.00,A,4555.96026,N,06639.18210,W,2.927,28.64,060917,,,A*52
$GNVTG,28.64,T,,M,2.927,N,5.420,K,A*16
$GNGGA,175745.00,4555.96026,N,06639.18210,W,1,12,0.74,114.4,M,-26.0,M,,*76
$GNGSA,A,3,06,02,19,12,09,17,05,23,25,,,,1.48,0.74,1.28*1A
$GNGSA,A,3,86,71,85,77,87,72,,,,,,,1.48,0.74,1.28*16
$GPGSV,4,1,13,02,62,295,32,05,27,221,38,06,65,063,37,09,34,082,30*7E
$GPGSV,4,2,13,12,37,263,38,17,21,140,26,19,42,140,31,23,22,052,28*77
$GPGSV,4,3,13,25,25,304,38,29,02,314,,46,30,221,27,48,08,253,*7A
$GPGSV,4,4,13,51,24,230,33*48
$GLGSV,2,1,08,70,36,038,21,71,72,125,29,72,30,190,28,77,12,288,20*6D
$GLGSV,2,2,08,78,11,342,,85,26,114,30,86,73,050,31,87,31,316,28*67
$GNGLL,4555.96026,N,06639.18210,W,175745.00,A,A*6A
$GNRMC,175746.00,A,4555.96100,N,06639.18148,W,3.077,30.25,060917,,,A*5B
$GNVTG,30.25,T,,M,3.077,N,5.699,K,A*17
$GNGGA,175746.00,4555.96100,N,06639.18148,W,1,12,0.74,114.0,M,-26.0,M,,*7A
$GNGSA,A,3,06,02,19,12,09,17,05,23,25,,,,1.48,0.74,1.28*1A
$GNGSA,A,3,86,71,85,77,87,72,,,,,,,1.48,0.74,1.28*16
$GPGSV,4,1,13,02,62,295,35,05,27,221,33,06,65,063,37,09,34,082,26*75
$GPGSV,4,2,13,12,37,263,38,17,21,140,31,19,42,140,32,23,22,052,27*7D
$GPGSV,4,3,13,25,25,304,36,29,02,314,,46,30,221,28,48,08,253,*7B
$GPGSV,4,4,13,51,24,230,33*48
$GLGSV,2,1,08,70,36,038,22,71,72,125,33,72,30,190,28,77,12,288,21*64
$GLGSV,2,2,08,78,11,342,,85,26,114,24,86,73,050,34,87,31,316,28*67
$GNGLL,4555.96100,N,06639.18148,W,175746.00,A,A*62
$GNRMC,175747.00,A,4555.96164,N,06639.18096,W,2.542,32.28,060917,,,A*57
$GNVTG,32.28,T,,M,2.542,N,4.708,K,A*12
$GNGGA,175747.00,4555.96164,N,06639.18096,W,1,12,0.74,113.8,M,-26.0,M,,*74
$GNGSA,A,3,06,02,19,12,09,17,05,23,25,,,,1.48,0.74,1.28*1A
$GNGSA,A,3,86,71,85,77,87,72,,,,,,,1.48,0.74,1.28*16
$GPGSV,4,1,13,02,62,295,35,05,27,221,34,06,65,063,39,09,34,082,31*7A
$GPGSV,4,2,13,12,37,263,38,17,21,140,27,19,42,140,28,23,22,052,28*7E
$GPGSV,4,3,13,25,25,304,38,29,02,314,18,46,30,221,28,48,08,253,*7C
$GPGSV,4,4,13,51,24,230,33*48
$GLGSV,2,1,08,70,36,038,24,71,72,125,36,72,30,190,27,77,12,288,24*6D
$GLGSV,2,2,08,78,11,342,,85,26,114,25,86,73,050,37,87,31,316,32*6E
$GNGLL,4555.96164,N,06639.18096,W,175747.00,A,A*63
$GNRMC,175748.00,A,4555.96231,N,06639.18034,W,2.868,33.04,060917,,,A*59
$GNVTG,33.04,T,,M,2.868,N,5.311,K,A*15
$GNGGA,175748.00,4555.96231,N,06639.18034,W,1,12,0.74,113.4,M,-26.0,M,,*7C
$GNGSA,A,3,06,02,19,12,09,17,05,23,25,,,,1.48,0.74,1.28*1A
$GNGSA,A,3,86,71,85,77,87,72,,,,,,,1.48,0.74,1.28*16
$GPGSV,4,1,13,02,62,295,34,05,27,221,34,06,65,063,40,09,34,082,26*73
$GPGSV,4,2,13,12,37,263,39,17,21,140,26,19,42,140,30,23,22,052,28*77
$GPGSV,4,3,13,25,25,304,38,29,03,314,,46,30,221,28,48,08,253,*74
$GPGSV,4,4,13,51,24,230,34*4F
$GLGSV,2,1,08,70,36,038,23,71,72,125,33,72,30,190,31,77,12,288,25*69
$GLGSV,2,2,08,78,11,342,,85,26,114,24,86,73,050,35,87,31,316,35*6A
$GNGLL,4555.96231,N,06639.18034,W,175748.00,A,A*67
$GNRMC,175749.00,A,4555.96297,N,06639.17996,W,2.730,27.99,060917,,,A*59
$GNVTG,27.99,T,,M,2.730,N,5.055,K,A*15
$GNGGA,175749.00,4555.96297,N,06639.17996,W,1,12,0.74,113.6,M,-26.0,M,,*7D
$GNGSA,A,3,06,02,19,12,09,17,05,23,25,,,,1.48,0.74,1.28*1A
$GNGSA,A,3,86,71,85,77,87,72,,,,,,,1.48,0.74,1.28*16
$GPGSV,4,1,13,02,62,295,31,05,27,221,36,06,65,063,34,09,34,082,27*76
$GPGSV,4,2,13,12,37,263,38,17,21,140,28,19,42,140,28,23,22,052,27*7E
$GPGSV,4,3,13,25,25,304,37,29,03,314,19,46,30,221,29,48,08,253,*72
$GPGSV,4,4,13,51,24,230,34*4F
$GLGSV,2,1,08,70,36,038,25,71,72,125,30,72,30,190,25,77,12,288,27*6B
$GLGSV,2,2,08,78,11,342,,85,26,114,27,86,73,050,32,87,31,316,26*6C
$GNGLL,4555.96297,N,06639.17996,W,175749.00,A,A*64
$GNRMC,175750.00,A,4555.96364,N,06639.17965,W,2.429,23.80,060917,,,A*57
$GNVTG,23.80,T,,M,2.429,N,4.499,K,A*17
$GNGGA,175750.00,4555.96364,N,06639.17965,W,1,12,0.74,113.6,M,-26.0,M,,*74
$GNGSA,A,3,06,02,19,12,09,17,05,23,25,,,,1.48,0.74,1.28*1A
$GNGSA,A,3,86,71,85,77,87,72,,,,,,,1.48,0.74,1.28*16
$GPGSV,4,1,13,02,62,295,27,05,27,221,35,06,65,063,36,09,34,082,23*74
$GPGSV,4,2,13,12,37,263,39,17,21,140,32,19,42,140,31,23,22,052,28*73
$GPGSV,4,3,13,25,25,304,40,29,03,314,,46,30,221,29,48,08,253,*7A
$GPGSV,4,4,13,51,24,230,34*4F
$GLGSV,2,1,08,70,36,038,25,71,72,125,31,72,30,190,27,77,12,288,27*68
$GLGSV,2,2,08,78,11,342,,85,26,114,28,86,73,050,35,87,31,316,27*65
$GNGLL,4555.96364,N,06639.17965,W,175750.00,A,A*6D
$GNRMC,175751.00,A,4555.96427,N,06639.17914,W,2.946,30.26,060917,,,A*5A
$GNVTG,30.26,T,,M,2.946,N,5.456,K,A*1F
$GNGGA,175751.00,4555.96427,N,06639.17914,W,1,12,0.72,114.0,M,-26.0,M,,*74
$GNGSA,A,3,06,02,19,12,09,17,05,23,25,,,,1.35,0.72,1.15*18
$GNGSA,A,3,86,71,85,77,87,72,,,,,,,1.35,0.72,1.15*14
$GPGSV,4,1,13,02,62,295,32,05,27,221,38,06,65,063,39,09,34,082,24*75
$GPGSV,4,2,13,12,37,263,37,17,21,140,28,19,42,140,31,23,22,052,27*79
$GPGSV,4,3,13,25,25,304,38,29,03,314,,46,30,221,30,48,08,253,*7D
$GPGSV,4,4,13,51,24,230,30*4B
$GLGSV,2,1,08,70,36,038,26,71,72,125,37,72,30,190,27,77,12,288,28*62
$GLGSV,2,2,08,78,11,342,,85,26,114,28,86,73,050,37,87,31,316,33*62
$GNGLL,4555.96427,N,06639.17914,W,175751.00,A,A*6A
$GNRMC,175752.00,A,4555.96485,N,06639.17846,W,2.973,36.71,060917,,,A*55
$GNVTG,36.71,T,,M,2.973,N,5.506,K,A*19
$GNGGA,175752.00,4555.96485,N,06639.17846,W,1,12,0.72,114.3,M,-26.0,M,,*7A
$GNGSA,A,3,06,02,19,12,09,17,05,23,25,,,,1.35,0.72,1.15*18
$GNGSA,A,3,86,71,85,77,87,72,,,,,,,1.35,0.72,1.15*14
$GPGSV,4,1,13,02,62,295,35,05,27,221,38,06,65,063,41,09,34,082,31*79
$GPGSV,4,2,13,12,37,263,43,17,21,140,34,19,42,140,31,23,22,052,32*73
$GPGSV,4,3,13,25,25,304,35,29,03,314,,46,30,221,29,48,08,253,*78
$GPGSV,4,4,13,51,24,230,33*48
$GLGSV,2,1,08,70,36,038,25,71,72,125,38,72,30,190,27,77,12,288,28*6E
$GLGSV,2,2,08,78,11,342,,85,26,114,19,86,73,050,39,87,31,316,33*6E
$GNGLL,4555.96485,N,06639.17846,W,175752.00,A,A*67
$GNRMC,175753.00,A,4555.96543,N,06639.17783,W,2.733,36.64,060917,,,A*57
$GNVTG,36.64,T,,M,2.733,N,5.062,K,A*10
$GNGGA,175753.00,4555.96543,N,06639.17783,W,1,12,0.72,114.7,M,-26.0,M,,*72
$GNGSA,A,3,06,02,19,12,09,17,05,23,25,,,,1.35,0.72,1.15*18
$GNGSA,A,3,86,71,85,77,87,72,,,,,,,1.35,0.72,1.15*14
$GPGSV,4,1,13,02,62,295,34,05,27,221,36,06,65,063,31,09,34,082,24*75
$GPGSV,4,2,13,12,37,263,41,17,21,140,27,19,42,140,31,23,22,052,32*73
$GPGSV,4,3,13,25,25,304,30,29,03,314,,46,30,221,29,48,08,253,*7D
$GPGSV,4,4,13,51,24,230,33*48
$GLGSV,2,1,08,70,36,038,25,71,72,125,33,72,30,190,26,77,12,288,29*65
$GLGSV,2,2,08,78,11,342,,85,26,114,20,86,73,050,27,87,31,316,37*6F
$GNGLL,4555.96543,N,06639.17783,W,175753.00,A,A*6B
$GNRMC,175754.00,A,4555.96603,N,06639.17712,W,2.900,39.98,060917,,,A*5D
$GNVTG,39.98,T,,M,2.900,N,5.371,K,A*13
$GNGGA,175754.00,4555.96603,N,06639.17712,W,1,12,0.72,114.8,M,-26.0,M,,*75
$GNGSA,A,3,06,02,19,12,09,17,05,23,25,,,,1.35,0.72,1.15*18
$GNGSA,A,3,86,71,85,77,87,72,,,,,,,1.35,0.72,1.15*14
$GPGSV,4,1,13,02,62,295,31,05,27,221,38,06,65,063,39,09,34,082,29*7B
$GPGSV,4,2,13,12,37,263,41,17,21,140,27,19,42,140,33,23,22,052,27*75
$GPGSV,4,3,13,25,25,304,33,29,03,314,,46,30,221,28,48,08,253,*7F
$GPGSV,4,4,13,51,24,230,36*4D
$GLGSV,2,1,08,70,36,038,25,71,72,125,37,72,30,190,28,77,12,288,29*6F
$GLGSV,2,2,08,78,11,342,,85,26,114,23,86,73,050,38,87,31,316,37*62
$GNGLL,4555.96603,N,06639.17712,W,175754.00,A,A*63
$GNRMC,175755.00,A,4555.96658,N,06639.17639,W,2.872,41.55,060917,,,A*50
$GNVTG,41.55,T,,M,2.872,N,5.319,K,A*17
$GNGGA,175755.00,4555.96658,N,06639.17639,W,1,12,0.72,115.1,M,-26.0,M,,*7A
$GNGSA,A,3,06,02,19,12,09,17,05,23,25,,,,1.35,0.72,1.15*18
$GNGSA,A,3,86,71,85,77,87,72,,,,,,,1.35,0.72,1.15*14
$GPGSV,4,1,13,02,62,295,35,05,27,221,38,06,65,063,37,09,34,082,34*7D
$GPGSV,4,2,13,12,37,263,40,17,21,140,27,19,42,140,33,23,22,052,31*73
$GPGSV,4,3,13,25,25,304,33,29,03,314,,46,30,221,28,48,08,253,*7F
$GPGSV,4,4,13,51,24,230,35*4E
$GLGSV,2,1,08,70,36,038,23,71,72,125,37,72,30,190,31,77,12,288,29*61
$GLGSV,2,2,08,78,11,342,,85,26,114,25,86,73,050,36,87,31,316,34*69
$GNGLL,4555.96658,N,06639.17639,W,175755.00,A,A*64
$GNRMC,175756.00,A,4555.96721,N,06639.17577,W,2.886,36.23,060917,,,A*5F
$GNVTG,36.23,T,,M,2.886,N,5.344,K,A*15
$GNGGA,175756.00,4555.96721,N,06639.17577,W,1,12,0.66,115.3,M,-26.0,M,,*78
$GNGSA,A,3,06,02,19,12,09,17,05,23,25,46,51,,1.32,0.66,1.14*1D
$GNGSA,A,3,86,71,85,77,87,72,,,,,,,1.32,0.66,1.14*17
$GPGSV,4,1,13,02,62,295,35,05,27,221,36,06,65,063,30,09,34,082,25*74
$GPGSV,4,2,13,12,37,263,38,17,21,140,28,19,42,140,33,23,22,052,26*75
$GPGSV,4,3,13,25,25,304,32,29,03,314,,46,30,221,30,48,08,253,*77
$GPGSV,4,4,13,51,24,230,35*4E
$GLGSV,2,1,08,70,36,038,23,71,72,125,34,72,30,190,28,77,12,288,30*62
$GLGSV,2,2,08,78,11,342,,85,26,114,26,86,73,050,28,87,31,316,35*64
$GNGLL,4555.96721,N,06639.17577,W,175756.00,A,A*61
$GNRMC,175757.00,A,4555.96794,N,06639.17526,W,3.144,33.69,060917,,,A*59
$GNVTG,33.69,T,,M,3.144,N,5.823,K,A*12
$GNGGA,175757.00,4555.96794,N,06639.17526,W,1,12,0.66,115.9,M,-26.0,M,,*79
$GNGSA,A,3,06,02,19,12,09,17,05,23,25,46,51,,1.32,0.66,1.14*1D
$GNGSA,A,3,86,71,85,77,87,72,,,,,,,1.32,0.66,1.14*17
$GPGSV,4,1,13,02,62,295,32,05,27,221,33,06,65,063,32,09,34,082,25*74
$GPGSV,4,2,13,12,37,263,33,17,21,140,28,19,42,140,33,23,22,052,32*7B
$GPGSV,4,3,13,25,25,304,37,29,03,314,,46,30,221,30,48,08,253,*72
$GPGSV,4,4,13,51,24,230,35*4E
$GLGSV,2,1,08,70,36,038,23,71,72,125,35,72,30,190,28,77,12,288,30*63
$GLGSV,2,2,08,78,11,342,,85,26,114,27,86,73,050,36,87,31,316,32*6D
$GNGLL,4555.96794,N,06639.17526,W,175757.00,A,A*6A
$GNRMC,175758.00,A,4555.96866,N,06639.17480,W,2.601,28.20,060917,,,A*59
$GNVTG,28.20,T,,M,2.601,N,4.817,K,A*14
$GNGGA,175758.00,4555.96866,N,06639.17480,W,1,12,0.66,116.0,M,-26.0,M,,*73
$GNGSA,A,3,06,02,19,12,09,17,05,23,25,46,51,,1.32,0.66,1.14*1D
$GNGSA,A,3,86,71,85,77,87,72,,,,,,,1.32,0.66,1.14*17
$GPGSV,4,1,13,02,62,295,35,05,27,221,36,06,65,063,38,09,34,082,26*7F
$GPGSV,4,2,13,12,37,263,34,17,21,140,31,19,42,140,33,23,22,052,28*7F
$GPGSV,4,3,13,25,25,304,37,29,03,314,,46,30,221,29,48,08,253,*7A
$GPGSV,4,4,13,51,24,230,35*4E
$GLGSV,2,1,08,70,36,038,24,71,72,125,33,72,30,190,28,77,12,288,30*62
$GLGSV,2,2,08,78,11,342,,85,26,114,26,86,73,050,36,87,31,316,33*6D
$GNGLL,4555.96866,N,06639.17480,W,175758.00,A,A*6A
$GNRMC,175759.00,A,4555.96938,N,06639.17449,W,2.743,24.51,060917,,,A*5A
$GNVTG,24.51,T,,M,2.743,N,5.080,K,A*1E
$GNGGA,175759.00,4555.96938,N,06639.17449,W,1,12,0.66,116.0,M,-26.0,M,,*7D
$GNGSA,A,3,06,02,19,12,09,17,05,23,25,46,51,,1.32,0.66,1.14*1D
$GNGSA,A,3,86,71,85,77,87,72,,,,,,,1.32,0.66,1.14*17
$GPGSV,4,1,13,02,62,295,32,05,27,221,34,06,65,063,39,09,34,082,26*7B
$GPGSV,4,2,13,12,37,263,32,17,21,140,31,19,42,140,18,23,22,052,27*7F
$GPGSV,4,3,13,25,25,304,32,29,03,314,,46,30,221,30,48,08,253,*77
$GPGSV,4,4,13,51,24,230,35*4E
$GLGSV,2,1,08,70,36,038,24,71,72,125,34,72,30,190,31,77,12,288,28*64
$GLGSV,2,2,08,78,11,342,19,85,26,114,25,86,73,050,36,87,31,316,33*66
$GNGLL,4555.96938,N,06639.17449,W,175759.00,A,A*64
$GNRMC,175800.00,A,4555.97002,N,06639.17437,W,2.276,18.92,060917,,,A*52
$GNVTG,18.92,T,,M,2.276,N,4.215,K,A*12
$GNGGA,175800.00,4555.97002,N,06639.17437,W,1,12,0.66,116.6,M,-26.0,M,,*70
$GNGSA,A,3,06,02,19,12,09,17,05,23,25,46,51,,1.32,0.66,1.14*1D
$GNGSA,A,3,86,71,85,77,87,72,,,,,,,1.32,0.66,1.14*17
$GPGSV,4,1,13,02,62,295,19,05,27,221,37,06,65,063,40,09,34,082,26*7F
$GPGSV,4,2,13,12,37,263,32,17,21,140,31,19,42,140,33,23,22,052,28*79
$GPGSV,4,3,13,25,25,304,36,29,03,314,,46,30,221,29,48,08,253,*7B
$GPGSV,4,4,13,51,24,230,36*4D
$GLGSV,2,1,08,70,36,038,22,71,72,125,33,72,30,190,31,77,12,288,28*65
$GLGSV,2,2,08,78,11,342,,85,26,114,31,86,73,050,36,87,31,316,24*6D
$GNGLL,4555.97002,N,06639.17437,W,175800.00,A,A*6F
$GNRMC,175801.00,A,4555.97073,N,06639.17414,W,2.457,16.03,060917,,,A*57
$GNVTG,16.03,T,,M,2.457,N,4.551,K,A*16
$GNGGA,175801.00,4555.97073,N,06639.17414,W,1,12,0.66,116.4,M,-26.0,M,,*74
$GNGSA,A,3,06,02,19,12,09,17,05,23,25,46,51,,1.32,0.66,1.14*1D
$GNGSA,A,3,86,71,85,77,87,72,,,,,,,1.32,0.66,1.14*17
$GPGSV,4,1,13,02,62,295,35,05,27,221,35,06,65,063,38,09,34,082,27*7D
$GPGSV,4,2,13,12,37,263,38,17,21,140,25,19,42,140,29,23,22,052,30*74
$GPGSV,4,3,13,25,25,304,33,29,03,314,,46,30,221,28,48,08,253,*7F
$GPGSV,4,4,13,51,24,230,37*4C
$GLGSV,2,1,08,70,36,038,22,71,72,125,33,72,30,190,32,77,12,288,27*69
$GLGSV,2,2,08,78,11,342,,85,26,114,25,86,73,050,35,87,31,316,39*67
$GNGLL,4555.97073,N,06639.17414,W,175801.00,A,A*69
$GNRMC,175802.00,A,4555.97136,N,06639.17377,W,2.426,22.43,060917,,,A*53
$GNVTG,22.43,T,,M,2.426,N,4.494,K,A*1B
$GNGGA,175802.00,4555.97136,N,06639.17377,W,1,12,0.66,116.5,M,-26.0,M,,*74
$GNGSA,A,3,06,02,19,12,09,17,05,23,25,46,51,,1.32,0.66,1.14*1D
$GNGSA,A,3,86,71,85,77,87,72,,,,,,,1.32,0.66,1.14*17
$GPGSV,4,1,13,02,62,295,28,05,27,221,41,06,65,063,36,09,34,082,32*78
$GPGSV,4,2,13,12,37,263,40,17,21,140,31,19,42,140,34,23,22,052,33*71
$GPGSV,4,3,13,25,25,304,28,29,03,314,,46,30,221,29,48,08,253,*74
$GPGSV,4,4,13,51,24,230,36*4D
$GLGSV,2,1,08,70,36,038,23,71,72,125,34,72,30,190,32,77,12,288,28*60
$GLGSV,2,2,08,78,11,342,19,85,26,114,26,86,73,050,34,87,31,316,37*63
$GNGLL,4555.97136,N,06639.17377,W,175802.00,A,A*68
$GNRMC,175803.00,A,4555.97193,N,06639.17300,W,3.001,37.28,060917,,,A*54
$GNVTG,37.28,T,,M,3.001,N,5.559,K,A*13
$GNGGA,175803.00,4555.97193,N,06639.17300,W,1,12,0.66,116.7,M,-26.0,M,,*78
$GNGSA,A,3,06,02,19,12,09,17,05,23,25,46,51,,1.32,0.66,1.14*1D
$GNGSA,A,3,86,71,85,77,87,72,,,,,,,1.32,0.66,1.14*17
$GPGSV,4,1,13,02,62,295,29,05,27,221,38,06,65,063,41,09,34,082,26*72
$GPGSV,4,2,13,12,37,263,38,17,21,140,25,19,42,140,32,23,22,052,35*7B
$GPGSV,4,3,13,25,25,304,38,29,03,314,,46,30,221,29,48,08,253,*75
$GPGSV,4,4,13,51,24,230,34*4F
$GLGSV,2,1,08,70,36,038,24,71,72,125,37,72,30,190,27,77,12,288,32*6B
$GLGSV,2,2,08,78,11,342,,85,26,114,25,86,73,050,36,87,31,316,31*6C
$GNGLL,4555.97193,N,06639.17300,W,175803.00,A,A*66
$GNRMC,175804.00,A,4555.97205,N,06639.17183,W,2.997,57.13,060917,,,A*5F
$GNVTG,57.13,T,,M,2.997,N,5.551,K,A*12
$GNGGA,175804.00,4555.97205,N,06639.17183,W,1,12,0.66,116.5,M,-26.0,M,,*78
$GNGSA,A,3,06,02,19,12,09,17,05,23,25,46,51,,1.32,0.66,1.14*1D
$GNGSA,A,3,86,71,85,77,87,72,,,,,,,1.32,0.66,1.14*17
$GPGSV,4,1,13,02,62,295,22,05,27,221,28,06,65,063,41,09,34,082,42*7A
$GPGSV,4,2,13,12,37,263,36,17,21,140,26,19,42,140,32,23,22,052,32*71
$GPGSV,4,3,13,25,25,304,36,29,03,314,,46,30,221,27,48,08,253,*75
$GPGSV,4,4,13,51,24,230,28*42
$GLGSV,2,1,08,70,36,038,24,71,72,125,34,72,30,190,26,77,12,288,25*6F
$GLGSV,2,2,08,78,11,342,,85,26,114,27,86,73,050,31,87,31,316,32*6A
$GNGLL,4555.97205,N,06639.17183,W,175804.00,A,A*64
$GNRMC,175805.00,A,4555.97186,N,06639.17065,W,2.910,82.34,060917,,,A*5D
$GNVTG,82.34,T,,M,2.910,N,5.390,K,A*1B
$GNGGA,175805.00,4555.97186,N,06639.17065,W,1,12,0.72,116.2,M,-26.0,M,,*7A
$GNGSA,A,3,06,02,19,12,09,17,05,23,25,,,,1.35,0.72,1.15*18
$GNGSA,A,3,86,71,85,77,87,72,,,,,,,1.35,0.72,1.15*14
$GPGSV,4,1,13,02,62,295,29,05,27,221,29,06,65,063,41,09,34,082,37*72
$GPGSV,4,2,13,12,37,263,34,17,21,140,25,19,42,140,33,23,22,052,26*74
$GPGSV,4,3,13,25,25,304,35,29,03,314,,46,30,221,,48,08,253,*73
$GPGSV,4,4,13,51,24,230,*48
$GLGSV,2,1,08,70,36,038,23,71,72,125,37,72,30,190,25,77,12,288,24*69
$GLGSV,2,2,08,78,11,342,,85,26,114,32,86,73,050,34,87,31,316,34*6D
$GNGLL,4555.97186,N,06639.17065,W,175805.00,A,A*64
$GNRMC,175806.00,A,4555.97141,N,06639.16953,W,3.256,109.92,060917,,,A*6E
$GNVTG,109.92,T,,M,3.256,N,6.030,K,A*27
$GNGGA,175806.00,4555.97141,N,06639.16953,W,1,12,0.72,116.1,M,-26.0,M,,*7C
$GNGSA,A,3,06,02,19,12,09,17,05,23,25,,,,1.35,0.72,1.15*18
$GNGSA,A,3,86,71,85,77,87,72,,,,,,,1.35,0.72,1.15*14
$GPGSV,4,1,13,02,62,295,30,05,27,221,29,06,65,063,39,09,34,082,37*75
$GPGSV,4,2,13,12,37,263,30,17,21,140,34,19,42,140,38,23,22,052,26*7B
$GPGSV,4,3,13,25,25,304,34,29,03,314,,46,30,221,,48,08,253,*72
$GPGSV,4,4,13,51,24,230,*48
$GLGSV,2,1,08,70,36,038,20,71,72,125,37,72,30,190,23,77,12,288,23*6B
$GLGSV,2,2,08,78,11,342,,85,26,114,36,86,73,050,33,87,31,316,35*6F
$GNGLL,4555.97141,N,06639.16953,W,175806.00,A,A*61
$GNRMC,175807.00,A,4555.97087,N,06639.16847,W,2.949,118.88,060917,,,A*6F
$GNVTG,118.88,T,,M,2.949,N,5.461,K,A*2B
$GNGGA,175807.00,4555.97087,N,06639.16847,W,1,12,0.72,116.0,M,-26.0,M,,*73
$GNGSA,A,3,06,02,19,12,09,17,05,23,25,,,,1.35,0.72,1.15*18
$GNGSA,A,3,86,71,85,77,87,72,,,,,,,1.35,0.72,1.15*14
$GPGSV,4,1,13,02,62,295,30,05,27,221,30,06,65,063,39,09,34,082,34*7E
$GPGSV,4,2,13,12,37,263,30,17,21,140,37,19,42,140,35,23,22,052,26*75
$GPGSV,4,3,13,25,25,304,31,29,03,314,,46,30,221,,48,08,253,*77
$GPGSV,4,4,13,51,24,230,27*4D
$GLGSV,2,1,08,70,36,038,18,71,72,125,38,72,30,190,21,77,12,288,23*6D
$GLGSV,2,2,08,78,11,342,,85,26,114,38,86,73,050,35,87,31,316,31*63
$GNGLL,4555.97087,N,06639.16847,W,175807.00,A,A*6F
$GNRMC,175808.00,A,4555.97038,N,06639.16746,W,2.957,124.45,060917,,,A*6B
$GNVTG,124.45,T,,M,2.957,N,5.476,K,A*2C
$GNGGA,175808.00,4555.97038,N,06639.16746,W,1,12,0.72,115.7,M,-26.0,M,,*72
$GNGSA,A,3,06,02,19,12,09,17,05,23,25,,,,1.35,0.72,1.15*18
$GNGSA,A,3,86,71,85,77,87,72,,,,,,,1.35,0.72,1.15*14
$GPGSV,4,1,13,02,62,295,29,05,27,221,28,06,65,063,42,09,34,082,43*73
$GPGSV,4,2,13,12,37,263,29,17,21,140,36,19,42,140,37,23,22,052,25*7D
$GPGSV,4,3,13,25,25,304,34,29,03,314,,46,30,221,,48,08,253,*72
$GPGSV,4,4,13,51,24,230,27*4D
$GLGSV,2,1,08,70,36,038,19,71,72,125,38,72,30,190,23,77,12,288,23*6E
$GLGSV,2,2,08,78,11,342,,85,26,114,39,86,73,050,29,87,31,316,30*6E
$GNGLL,4555.97038,N,06639.16746,W,175808.00,A,A*6A
$GNRMC,175809.00,A,4555.97006,N,06639.16620,W,3.275,118.73,060917,,,A*66
$GNVTG,118.73,T,,M,3.275,N,6.065,K,A*29
$GNGGA,175809.00,4555.97006,N,06639.16620,W,1,12,0.71,115.6,M,-26.0,M,,*7D
$GNGSA,A,3,06,02,19,12,09,17,05,23,25,51,,,1.44,0.71,1.26*19
$GNGSA,A,3,86,71,85,77,87,72,,,,,,,1.44,0.71,1.26*11
$GPGSV,4,1,13,02,62,295,30,05,27,221,35,06,65,063,43,09,34,082,40*75
$GPGSV,4,2,13,12,37,263,32,17,21,140,37,19,42,140,35,23,22,052,26*77
$GPGSV,4,3,13,25,25,304,34,29,03,314,,46,30,221,,48,08,253,*72
$GPGSV,4,4,13,51,24,230,28*42
$GLGSV,2,1,08,70,36,038,21,71,72,125,38,72,30,190,23,77,12,288,22*64
$GLGSV,2,2,08,78,11,342,,85,26,114,38,86,73,050,33,87,31,316,30*64
$GNGLL,4555.97006,N,06639.16620,W,175809.00,A,A*67
$GNRMC,175810.00,A,4555.96944,N,06639.16539,W,3.210,132.32,060917,,,A*65
$GNVTG,132.32,T,,M,3.210,N,5.945,K,A*2F
$GNGGA,175810.00,4555.96944,N,06639.16539,W,1,12,0.71,115.5,M,-26.0,M,,*73
$GNGSA,A,3,06,02,19,12,09,17,05,23,25,51,,,1.44,0.71,1.26*19
$GNGSA,A,3,86,71,85,77,87,72,,,,,,,1.44,0.71,1.26*11
$GPGSV,4,1,13,02,62,295,31,05,27,221,29,06,65,063,40,09,34,082,28*74
$GPGSV,4,2,13,12,37,263,32,17,21,140,36,19,42,140,32,23,22,052,32*74
$GPGSV,4,3,13,25,25,304,34,29,03,314,,46,30,221,,48,08,253,*72
$GPGSV,4,4,13,51,24,230,28*42
$GLGSV,2,1,08,70,36,038,21,71,72,125,36,72,30,190,23,77,12,288,22*6A
$GLGSV,2,2,08,78,11,342,,85,26,114,38,86,73,050,33,87,31,316,30*64
$GNGLL,4555.96944,N,06639.16539,W,175810.00,A,A*6A
$GNRMC,175811.00,A,4555.96891,N,06639.16448,W,3.011,130.07,060917,,,A*6D
$GNVTG,130.07,T,,M,3.011,N,5.577,K,A*25
$GNGGA,175811.00,4555.96891,N,06639.16448,W,1,12,0.71,115.4,M,-26.0,M,,*7D
$GNGSA,A,3,06,02,19,12,09,17,05,23,25,51,,,1.44,0.71,1.26*19
$GNGSA,A,3,86,71,85,77,87,72,,,,,,,1.44,0.71,1.26*11
$GPGSV,4,1,13,02,62,295,31,05,27,221,36,06,65,063,39,09,34,082,35*78
$GPGSV,4,2,13,12,37,263,32,17,21,140,38,19,42,140,31,23,22,052,27*7D
$GPGSV,4,3,13,25,25,304,33,29,03,314,,46,30,221,,48,08,253,*75
$GPGSV,4,4,13,51,24,230,28*42
$GLGSV,2,1,08,70,36,038,21,71,72,125,36,72,30,190,23,77,12,288,20*68
$GLGSV,2,2,08,78,11,342,,85,26,114,39,86,73,050,33,87,31,316,32*67
$GNGLL,4555.96891,N,06639.16448,W,175811.00,A,A*65
$GNRMC,175812.00,A,4555.96847,N,06639.16354,W,2.829,129.00,060917,,,A*62
$GNVTG,129.00,T,,M,2.829,N,5.239,K,A*25
$GNGGA,175812.00,4555.96847,N,06639.16354,W,1,12,0.80,115.2,M,-26.0,M,,*77
$GNGSA,A,3,06,02,19,12,09,17,05,23,25,51,,,1.53,0.80,1.30*16
$GNGSA,A,3,86,71,85,77,87,72,,,,,,,1.53,0.80,1.30*1E
$GPGSV,4,1,13,02,62,295,29,05,27,221,30,06,65,063,41,09,34,082,36*7B
$GPGSV,4,2,13,12,37,263,26,17,21,140,32,19,42,140,31,23,22,052,27*72
$GPGSV,4,3,13,25,25,304,33,29,03,314,,46,30,221,,48,08,253,*75
$GPGSV,4,4,13,51,24,230,28*42
$GLGSV,2,1,08,70,36,038,21,71,72,125,36,72,30,190,24,77,12,288,20*6F
$GLGSV,2,2,08,78,11,342,,85,26,114,37,86,73,050,29,87,31,316,32*62
$GNGLL,4555.96847,N,06639.16354,W,175812.00,A,A*67
$GNRMC,175813.00,A,4555.96803,N,06639.16266,W,2.766,131.97,060917,,,A*60
$GNVTG,131.97,T,,M,2.766,N,5.123,K,A*2E
$GNGGA,175813.00,4555.96803,N,06639.16266,W,1,12,0.74,115.1,M,-26.0,M,,*7E
$GNGSA,A,3,06,02,19,12,09,17,05,23,25,,,,1.48,0.74,1.28*1A
$GNGSA,A,3,86,71,85,77,87,72,,,,,,,1.48,0.74,1.28*16
$GPGSV,4,1,13,02,62,295,29,05,27,221,34,06,65,063,39,09,34,082,36*70
$GPGSV,4,2,13,12,37,263,32,17,21,140,39,19,42,140,39,23,22,052,29*7A
$GPGSV,4,3,13,25,25,304,32,29,03,314,,46,30,221,,48,08,253,*74
$GPGSV,4,4,13,51,24,230,*48
$GLGSV,2,1,08,70,35,038,23,71,72,125,38,72,30,190,24,77,12,288,21*61
$GLGSV,2,2,08,78,11,342,,85,26,114,41,86,73,050,33,87,31,316,33*69
$GNGLL,4555.96803,N,06639.16266,W,175813.00,A,A*66
$GNRMC,175814.00,A,4555.96749,N,06639.16183,W,2.691,134.99,060917,,,A*6C
$GNVTG,134.99,T,,M,2.691,N,4.984,K,A*28
$GNGGA,175814.00,4555.96749,N,06639.16183,W,1,12,0.74,114.8,M,-26.0,M,,*78
$GNGSA,A,3,06,02,19,12,09,17,05,23,25,,,,1.48,0.74,1.28*1A
$GNGSA,A,3,86,71,85,77,87,72,,,,,,,1.48,0.74,1.28*16
$GPGSV,4,1,13,02,62,295,32,05,27,221,32,06,65,063,37,09,34,082,38*7C
$GPGSV,4,2,13,12,37,263,28,17,21,140,35,19,42,140,37,23,22,052,28*72
$GPGSV,4,3,13,25,25,304,33,29,03,314,,46,30,221,,48,08,253,*75
$GPGSV,4,4,13,51,24,230,27*4D
$GLGSV,2,1,08,70,35,038,23,71,72,123,37,72,30,190,25,77,12,288,22*6A
$GLGSV,2,2,08,78,11,342,,85,26,114,41,86,73,050,33,87,31,316,33*69
$GNGLL,4555.96749,N,06639.16183,W,175814.00,A,A*68
$GNRMC,175815.00,A,4555.96699,N,06639.16118,W,2.411,140.46,060917,,,A*68
$GNVTG,140.46,T,,M,2.411,N,4.465,K,A*21
$GNGGA,175815.00,4555.96699,N,06639.16118,W,1,12,0.71,114.5,M,-26.0,M,,*7F
$GNGSA,A,3,06,02,19,12,09,17,05,23,25,51,,,1.44,0.71,1.26*19
$GNGSA,A,3,86,71,85,77,87,72,,,,,,,1.44,0.71,1.26*11
$GPGSV,4,1,13,02,62,295,28,05,27,221,24,06,65,063,42,09,34,082,38*72
$GPGSV,4,2,13,12,37,263,29,17,21,140,28,19,42,140,33,23,22,052,28*7B
$GPGSV,4,3,13,25,25,304,33,29,03,314,,46,30,221,,48,08,253,*75
$GPGSV,4,4,13,51,24,230,30*4B
$GLGSV,2,1,08,70,35,038,22,71,72,123,35,72,31,191,24,77,12,288,22*68
$GLGSV,2,2,08,78,11,342,,85,26,114,37,86,73,050,33,87,31,316,28*62
$GNGLL,4555.96699,N,06639.16118,W,175815.00,A,A*67
$GNRMC,175816.00,A,4555.96664,N,06639.16033,W,2.552,129.75,060917,,,A*68
$GNVTG,129.75,T,,M,2.552,N,4.727,K,A*2D
$GNGGA,175816.00,4555.96664,N,06639.16033,W,1,12,0.68,114.5,M,-26.0,M,,*7E
$GNGSA,A,3,06,02,19,12,09,17,05,23,25,51,,,1.33,0.68,1.14*10
$GNGSA,A,3,86,71,85,77,87,72,,,,,,,1.33,0.68,1.14*18
$GPGSV,4,1,13,02,62,295,32,05,27,221,31,06,65,063,43,09,34,082,40*73
$GPGSV,4,2,13,12,37,263,29,17,21,140,32,19,42,140,29,23,22,052,26*75
$GPGSV,4,3,13,25,25,304,34,29,03,314,,46,30,221,,48,08,253,*72
$GPGSV,4,4,13,51,24,230,29*43
$GLGSV,2,1,08,70,35,038,22,71,72,123,36,72,31,191,25,77,12,288,22*6A
$GLGSV,2,2,08,78,11,342,,85,26,114,31,86,73,050,34,87,31,316,33*69
$GNGLL,4555.96664,N,06639.16033,W,175816.00,A,A*6E
$GNRMC,175817.00,A,4555.96635,N,06639.15932,W,2.738,121.98,060917,,,A*63
$GNVTG,121.98,T,,M,2.738,N,5.071,K,A*2D
$GNGGA,175817.00,4555.96635,N,06639.15932,W,1,12,0.70,114.3,M,-26.0,M,,*7F
$GNGSA,A,3,06,02,19,12,09,17,05,23,25,51,,,1.34,0.70,1.15*1F
$GNGSA,A,3,86,71,85,77,87,72,,,,,,,1.34,0.70,1.15*17
$GPGSV,4,1,13,02,62,295,31,05,27,221,31,06,65,063,39,09,34,082,45*78
$GPGSV,4,2,13,12,37,263,36,17,21,140,32,19,42,140,32,23,22,052,35*73
$GPGSV,4,3,13,25,25,304,29,29,03,314,,46,30,221,,48,08,253,*7E
$GPGSV,4,4,13,51,24,230,30*4B
$GLGSV,2,1,08,70,35,038,21,71,72,123,34,72,31,191,25,77,12,288,23*6A
$GLGSV,2,2,08,78,11,342,,85,26,114,37,86,73,050,36,87,31,316,32*6C
$GNGLL,4555.96635,N,06639.15932,W,175817.00,A,A*60
$GNRMC,175818.00,A,4555.96601,N,06639.15836,W,2.409,120.83,060917,,,A*64
$GNVTG,120.83,T,,M,2.409,N,4.461,K,A*23
$GNGGA,175818.00,4555.96601,N,06639.15836,W,1,12,0.71,114.2,M,-26.0,M,,*72
$GNGSA,A,3,06,02,19,12,09,17,05,23,25,51,,,1.44,0.71,1.26*19
$GNGSA,A,3,86,71,85,77,87,72,,,,,,,1.44,0.71,1.26*11
$GPGSV,4,1,13,02,62,295,26,05,27,221,24,06,65,063,40,09,34,082,43*72
$GPGSV,4,2,13,12,37,263,29,17,21,140,35,19,42,140,36,23,22,052,38*73
$GPGSV,4,3,13,25,25,304,31,29,03,314,,46,30,221,,48,08,253,*77
$GPGSV,4,4,13,51,24,230,29*43
$GLGSV,2,1,08,70,35,038,22,71,72,123,32,72,31,191,24,77,12,288,24*69
$GLGSV,2,2,08,78,11,342,,85,26,114,38,86,73,050,35,87,31,316,27*64
$GNGLL,4555.96601,N,06639.15836,W,175818.00,A,A*6D
$GNRMC,175819.00,A,4555.96569,N,06639.15738,W,2.642,120.54,060917,,,A*6E
$GNVTG,120.54,T,,M,2.642,N,4.894,K,A*22
$GNGGA,175819.00,4555.96569,N,06639.15738,W,1,12,0.71,114.2,M,-26.0,M,,*7F
$GNGSA,A,3,06,02,19,12,09,17,05,23,25,51,,,1.44,0.71,1.26*19
$GNGSA,A,3,86,71,85,77,87,72,,,,,,,1.44,0.71,1.26*11
$GPGSV,4,1,13,02,62,295,31,05,27,221,25,06,65,063,38,09,34,082,44*7D
$GPGSV,4,2,13,12,37,263,28,17,21,140,35,19,42,140,33,23,22,052,38*77
$GPGSV,4,3,13,25,25,304,31,29,03,314,,46,30,221,,48,08,253,*77
$GPGSV,4,4,13,51,24,230,28*42
$GLGSV,2,1,08,70,35,038,25,71,72,123,30,72,31,191,26,77,12,288,24*6E
$GLGSV,2,2,08,78,11,342,,85,26,114,36,86,73,050,35,87,31,316,32*6E
$GNGLL,4555.96569,N,06639.15738,W,175819.00,A,A*60
$GNRMC,175820.00,A,4555.96527,N,06639.15648,W,2.926,127.02,060917,,,A*61
$GNVTG,127.02,T,,M,2.926,N,5.419,K,A*23
$GNGGA,175820.00,4555.96527,N,06639.15648,W,1,12,0.73,114.2,M,-26.0,M,,*7B
$GNGSA,A,3,06,02,19,12,09,17,05,23,25,51,,,1.46,0.73,1.26*19
$GNGSA,A,3,86,71,85,77,87,72,,,,,,,1.46,0.73,1.26*11
$GPGSV,4,1,13,02,62,295,31,05,27,221,25,06,65,063,41,09,34,082,43*74
$GPGSV,4,2,13,12,37,263,29,17,21,140,34,19,42,140,30,23,22,052,35*79
$GPGSV,4,3,13,25,25,304,31,29,03,314,,46,30,221,,48,08,253,*77
$GPGSV,4,4,13,51,24,230,27*4D
$GLGSV,2,1,08,70,35,038,25,71,72,123,38,72,31,191,26,77,11,288,24*65
$GLGSV,2,2,08,78,11,342,,85,26,114,38,86,73,050,31,87,31,316,33*65
$GNGLL,4555.96527,N,06639.15648,W,175820.00,A,A*66
$GNRMC,175821.00,A,4555.96488,N,06639.15549,W,2.712,122.94,060917,,,A*65
$GNVTG,122.94,T,,M,2.712,N,5.023,K,A*2D
$GNGGA,175821.00,4555.96488,N,06639.15549,W,1,12,0.71,113.9,M,-26.0,M,,*72
$GNGSA,A,3,06,02,19,12,09,17,05,23,25,51,,,1.44,0.71,1.26*19
$GNGSA,A,3,86,71,85,77,87,72,,,,,,,1.44,0.71,1.26*11
$GPGSV,4,1,13,02,62,295,31,05,27,221,26,06,65,063,41,09,34,082,37*74
$GPGSV,4,2,13,12,37,263,28,17,21,140,29,19,42,140,37,23,22,052,32*74
$GPGSV,4,3,13,25,25,304,33,29,03,314,,46,30,221,,48,08,253,*75
$GPGSV,4,4,13,51,24,230,27*4D
$GLGSV,2,1,08,70,35,038,24,71,72,123,36,72,31,191,26,77,11,288,25*6B
$GLGSV,2,2,08,78,11,341,,85,26,114,29,86,73,050,35,87,31,316,29*69
$GNGLL,4555.96488,N,06639.15549,W,175821.00,A,A*61
$GNRMC,175822.00,A,4555.96468,N,06639.15430,W,3.018,113.65,060917,,,A*67
$GNVTG,113.65,T,,M,3.018,N,5.590,K,A*20
$GNGGA,175822.00,4555.96468,N,06639.15430,W,1,12,0.71,113.7,M,-26.0,M,,*7E
$GNGSA,A,3,06,02,19,12,09,17,05,23,25,51,,,1.44,0.71,1.26*19
$GNGSA,A,3,86,71,85,77,87,72,,,,,,,1.44,0.71,1.26*11
$GPGSV,4,1,13,02,62,295,30,05,27,221,27,06,65,063,40,09,34,082,38*7A
$GPGSV,4,2,13,12,37,263,27,17,21,140,33,19,42,140,37,23,22,052,34*76
$GPGSV,4,3,13,25,25,304,33,29,03,314,,46,30,221,,48,08,253,*75
$GPGSV,4,4,13,51,24,230,27*4D
$GLGSV,2,1,08,70,35,038,22,71,72,123,37,72,31,191,26,77,11,288,25*6C
$GLGSV,2,2,08,78,11,341,,85,26,114,32,86,73,050,32,87,31,316,33*6F
$GNGLL,4555.96468,N,06639.15430,W,175822.00,A,A*63
$GNRMC,175823.00,A,4555.96442,N,06639.15308,W,3.148,113.38,060917,,,A*6E
$GNVTG,113.38,T,,M,3.148,N,5.830,K,A*2B
$GNGGA,175823.00,4555.96442,N,06639.15308,W,1,12,0.74,113.4,M,-26.0,M,,*7D
$GNGSA,A,3,06,02,19,12,09,17,05,23,25,,,,1.48,0.74,1.28*1A
$GNGSA,A,3,86,71,85,77,87,72,,,,,,,1.48,0.74,1.28*16
$GPGSV,4,1,13,02,62,295,31,05,27,221,33,06,65,063,42,09,34,082,41*72
$GPGSV,4,2,13,12,37,263,32,17,21,140,36,19,42,140,30,23,22,052,34*70
$GPGSV,4,3,13,25,25,304,30,29,03,314,,46,30,221,28,48,08,253,*7C
$GPGSV,4,4,13,51,24,230,*48
$GLGSV,2,1,08,70,35,038,20,71,72,123,39,72,31,191,25,77,11,288,25*63
$GLGSV,2,2,08,78,11,341,,85,26,114,26,86,73,050,35,87,31,316,34*6A
$GNGLL,4555.96442,N,06639.15308,W,175823.00,A,A*66
$GNRMC,175824.00,A,4555.96399,N,06639.15194,W,3.243,119.32,060917,,,A*67
$GNVTG,119.32,T,,M,3.243,N,6.006,K,A*2D
$GNGGA,175824.00,4555.96399,N,06639.15194,W,1,12,0.66,113.5,M,-26.0,M,,*7E
$GNGSA,A,3,06,02,19,12,09,17,05,23,25,46,51,,1.32,0.66,1.14*1D
$GNGSA,A,3,86,71,85,77,87,72,,,,,,,1.32,0.66,1.14*17
$GPGSV,4,1,13,02,62,295,33,05,27,221,32,06,65,063,39,09,34,082,38*73
$GPGSV,4,2,13,12,37,263,26,17,21,140,23,19,42,140,35,23,22,052,40*77
$GPGSV,4,3,13,25,25,304,29,29,03,314,,46,30,221,28,48,08,253,*74
$GPGSV,4,4,13,51,24,230,30*4B
$GLGSV,2,1,08,70,35,038,28,71,72,123,37,72,31,191,25,77,11,288,25*65
$GLGSV,2,2,08,78,11,341,,85,26,114,35,86,73,050,32,87,31,316,31*6A
$GNGLL,4555.96399,N,06639.15194,W,175824.00,A,A*67
$GNRMC,175825.00,A,4555.96365,N,06639.15071,W,3.194,117.42,060917,,,A*6F
$GNVTG,117.42,T,,M,3.194,N,5.915,K,A*25
$GNGGA,175825.00,4555.96365,N,06639.15071,W,1,12,0.66,113.5,M,-26.0,M,,*76
$GNGSA,A,3,06,02,19,12,09,17,05,23,25,46,51,,1.32,0.66,1.14*1D
$GNGSA,A,3,86,71,85,77,87,72,,,,,,,1.32,0.66,1.14*17
$GPGSV,4,1,13,02,62,295,28,05,27,221,31,06,65,063,42,09,34,082,40*79
$GPGSV,4,2,13,12,37,263,31,17,21,140,26,19,42,140,31,23,22,052,37*70
$GPGSV,4,3,13,25,25,304,29,29,03,314,,46,30,221,27,48,08,253,*7B
$GPGSV,4,4,13,51,24,230,28*42
$GLGSV,2,1,08,70,35,038,28,71,72,123,38,72,31,191,26,77,11,288,25*69
$GLGSV,2,2,08,78,11,341,,85,26,114,25,86,73,050,35,87,31,316,35*68
$GNGLL,4555.96365,N,06639.15071,W,175825.00,A,A*6F
$GNRMC,175826.00,A,4555.96343,N,06639.14949,W,2.992,113.36,060917,,,A*63
$GNVTG,113.36,T,,M,2.992,N,5.542,K,A*23
$GNGGA,175826.00,4555.96343,N,06639.14949,W,1,12,0.66,113.6,M,-26.0,M,,*71
$GNGSA,A,3,06,02,19,12,09,17,05,23,25,46,51,,1.32,0.66,1.14*1D
$GNGSA,A,3,86,71,85,77,87,72,,,,,,,1.32,0.66,1.14*17
$GPGSV,4,1,13,02,62,295,32,05,27,221,25,06,65,063,40,09,34,082,39*7B
$GPGSV,4,2,13,12,37,263,27,17,21,140,31,19,42,140,33,23,22,052,34*70
$GPGSV,4,3,13,25,25,304,31,29,03,314,,46,30,221,27,48,08,253,*72
$GPGSV,4,4,13,51,24,230,27*4D
$GLGSV,2,1,08,70,35,038,26,71,72,123,36,72,31,191,25,77,11,288,25*6A
$GLGSV,2,2,08,78,11,341,,85,26,114,25,86,73,050,32,87,31,316,34*6E
$GNGLL,4555.96343,N,06639.14949,W,175826.00,A,A*6B
$GNRMC,175827.00,A,4555.96330,N,06639.14834,W,2.837,109.44,060917,,,A*6D
$GNVTG,109.44,T,,M,2.837,N,5.254,K,A*23
$GNGGA,175827.00,4555.96330,N,06639.14834,W,1,12,0.71,113.9,M,-26.0,M,,*76
$GNGSA,A,3,06,02,19,12,09,17,05,23,25,,,,1.35,0.71,1.15*1B
$GNGSA,A,3,86,71,85,77,87,72,,,,,,,1.35,0.71,1.15*17
$GPGSV,4,1,13,02,62,295,32,05,27,221,28,06,65,063,38,09,34,082,34*74
$GPGSV,4,2,13,12,37,263,27,17,21,140,25,19,42,140,36,23,22,052,35*71
$GPGSV,4,3,13,25,25,304,31,29,03,314,,46,30,221,,48,08,253,*77
$GPGSV,4,4,13,51,24,230,*48
$GLGSV,2,1,08,70,35,038,26,71,72,123,34,72,31,191,23,77,11,288,25*6E
$GLGSV,2,2,08,78,11,341,,85,26,114,25,86,73,050,29,87,31,316,35*65
$GNGLL,4555.96330,N,06639.14834,W,175827.00,A,A*65
$GNRMC,175828.00,A,4555.96306,N,06639.14723,W,2.832,110.69,060917,,,A*6C
$GNVTG,110.69,T,,M,2.832,N,5.245,K,A*21
$GNGGA,175828.00,4555.96306,N,06639.14723,W,1,12,0.71,113.5,M,-26.0,M,,*79
$GNGSA,A,3,06,02,19,12,09,17,05,23,25,,,,1.35,0.71,1.15*1B
$GNGSA,A,3,86,71,85,77,87,72,,,,,,,1.35,0.71,1.15*17
$GPGSV,4,1,13,02,62,295,26,05,27,221,25,06,65,063,41,09,34,082,41*70
$GPGSV,4,2,13,12,37,263,28,17,21,140,24,19,42,140,29,23,22,052,35*71
$GPGSV,4,3,13,25,25,304,34,29,03,314,,46,30,221,,48,08,253,*72
$GPGSV,4,4,13,51,24,230,*48
$GLGSV,2,1,08,70,35,038,25,71,72,123,34,72,31,191,22,77,11,288,23*6A
$GLGSV,2,2,08,78,11,341,,85,26,114,25,86,73,050,30,87,31,316,34*6C
$GNGLL,4555.96306,N,06639.14723,W,175828.00,A,A*66
$GNRMC,175829.00,A,4555.96288,N,06639.14621,W,2.547,107.72,060917,,,A*6A
$GNVTG,107.72,T,,M,2.547,N,4.716,K,A*20
$GNGGA,175829.00,4555.96288,N,06639.14621,W,1,12,0.71,113.5,M,-26.0,M,,*7C
$GNGSA,A,3,06,02,19,12,09,17,05,23,25,,,,1.35,0.71,1.15*1B
$GNGSA,A,3,86,71,85,77,87,72,,,,,,,1.35,0.71,1.15*17
$GPGSV,4,1,13,02,62,295,33,05,27,221,27,06,65,063,41,09,34,082,36*76
$GPGSV,4,2,13,12,37,263,29,17,21,140,24,19,42,140,34,23,22,052,33*7A
$GPGSV,4,3,13,25,25,304,32,29,03,314,,46,30,221,,48,08,253,*74
$GPGSV,4,4,13,51,24,230,*48
$GLGSV,2,1,08,70,35,038,25,71,72,123,36,72,31,191,22,77,11,288,22*69
$GLGSV,2,2,08,78,11,341,,85,26,114,27,86,73,052,33,87,31,316,34*6F
$GNGLL,4555.96288,N,06639.14621,W,175829.00,A,A*63
$GNRMC,175830.00,A,4555.96273,N,06639.14516,W,2.629,108.72,060917,,,A*65
$GNVTG,108.72,T,,M,2.629,N,4.868,K,A*22
$GNGGA,175830.00,4555.96273,N,06639.14516,W,1,12,0.74,113.3,M,-26.0,M,,*74
$GNGSA,A,3,06,02,19,12,09,17,05,23,25,,,,1.48,0.74,1.28*1A
$GNGSA,A,3,86,71,85,77,87,72,,,,,,,1.48,0.74,1.28*16
$GPGSV,4,1,13,02,62,295,32,05,27,221,32,06,65,063,40,09,34,082,41*72
$GPGSV,4,2,13,12,37,263,33,17,21,140,26,19,42,140,33,23,22,052,30*77
$GPGSV,4,3,13,25,25,304,32,29,03,314,,46,30,221,,48,08,253,*74
$GPGSV,4,4,13,51,24,230,*48
$GLGSV,2,1,08,70,35,038,24,71,72,123,33,72,31,191,23,77,11,288,21*6F
$GLGSV,2,2,08,78,11,341,,85,26,114,27,86,73,052,29,87,32,316,35*66
$GNGLL,4555.96273,N,06639.14516,W,175830.00,A,A*68
$GNRMC,175831.00,A,4555.96248,N,06639.14426,W,2.452,114.93,060917,,,A*62
$GNVTG,114.93,T,,M,2.452,N,4.542,K,A*2B
$GNGGA,175831.00,4555.96248,N,06639.14426,W,1,12,0.71,113.2,M,-26.0,M,,*7B
$GNGSA,A,3,06,02,19,12,09,17,05,23,25,,,,1.35,0.71,1.15*1B
$GNGSA,A,3,86,71,85,77,87,72,,,,,,,1.35,0.71,1.15*17
$GPGSV,4,1,13,02,62,295,32,05,27,221,25,06,65,063,39,09,34,082,41*7A
$GPGSV,4,2,13,12,37,263,28,17,21,140,37,19,42,140,36,23,22,052,33*7B
$GPGSV,4,3,13,25,25,304,33,29,03,314,,46,30,221,,48,08,253,*75
$GPGSV,4,4,13,51,24,230,*48
$GLGSV,2,1,08,70,35,038,24,71,72,123,34,72,31,191,23,77,11,288,20*69
$GLGSV,2,2,08,78,11,341,,85,26,114,38,86,73,052,33,87,32,316,33*65
$GNGLL,4555.96248,N,06639.14426,W,175831.00,A,A*63
$GNRMC,175832.00,A,4555.96216,N,06639.14335,W,2.578,120.29,060917,,,A*60
$GNVTG,120.29,T,,M,2.578,N,4.775,K,A*22
$GNGGA,175832.00,4555.96216,N,06639.14335,W,1,12,0.74,113.3,M,-26.0,M,,*72
$GNGSA,A,3,06,02,19,12,09,17,05,23,25,,,,1.48,0.74,1.28*1A
$GNGSA,A,3,86,71,85,77,87,72,,,,,,,1.48,0.74,1.28*16
$GPGSV,4,1,13,02,62,296,31,05,27,221,32,06,65,063,35,09,34,082,40*71
$GPGSV,4,2,13,12,37,263,32,17,21,140,23,19,42,140,35,23,22,052,33*76
$GPGSV,4,3,13,25,25,304,33,29,03,314,,46,30,221,,48,08,253,*75
$GPGSV,4,4,13,51,24,230,*48
$GLGSV,2,1,08,70,35,038,25,71,72,123,36,72,31,191,23,77,11,288,21*6B
$GLGSV,2,2,08,78,11,341,,85,26,114,36,86,73,052,29,87,32,316,34*67
$GNGLL,4555.96216,N,06639.14335,W,175832.00,A,A*6E
$GNRMC,175833.00,A,4555.96170,N,06639.14234,W,3.030,123.19,060917,,,A*6A
$GNVTG,123.19,T,,M,3.030,N,5.612,K,A*2B
$GNGGA,175833.00,4555.96170,N,06639.14234,W,1,12,0.74,113.1,M,-26.0,M,,*72
$GNGSA,A,3,06,02,19,12,09,17,05,23,25,,,,1.48,0.74,1.28*1A
$GNGSA,A,3,86,71,85,77,87,72,,,,,,,1.48,0.74,1.28*16
$GPGSV,4,1,13,02,62,296,31,05,27,221,30,06,65,063,38,09,34,082,40*7E
$GPGSV,4,2,13,12,37,263,33,17,21,140,37,19,42,140,35,23,22,052,35*74
$GPGSV,4,3,13,25,25,304,33,29,03,314,18,46,30,221,,48,08,253,*7C
$GPGSV,4,4,13,51,24,230,*48
$GLGSV,2,1,08,70,35,038,25,71,72,123,33,72,31,191,22,77,11,288,22*6C
$GLGSV,2,2,08,78,11,341,,85,26,114,38,86,73,052,33,87,32,316,34*62
$GNGLL,4555.96170,N,06639.14234,W,175833.00,A,A*6C
$GNRMC,175834.00,A,4555.96125,N,06639.14132,W,3.080,123.34,060917,,,A*6C
$GNVTG,123.34,T,,M,3.080,N,5.705,K,A*28
$GNGGA,175834.00,4555.96125,N,06639.14132,W,1,12,0.74,113.1,M,-26.0,M,,*70
$GNGSA,A,3,06,02,19,12,09,17,05,23,25,,,,1.48,0.74,1.28*1A
$GNGSA,A,3,86,71,85,77,87,72,,,,,,,1.48,0.74,1.28*16
$GPGSV,4,1,13,02,62,296,30,05,27,221,30,06,65,063,40,09,34,082,35*72
$GPGSV,4,2,13,12,37,263,32,17,21,140,23,19,42,140,36,23,22,052,31*77
$GPGSV,4,3,13,25,25,304,33,29,03,314,15,46,30,221,,48,08,253,*71
$GPGSV,4,4,13,51,24,230,27*4D
$GLGSV,2,1,08,70,35,038,25,71,72,123,37,72,31,191,23,77,11,288,22*69
$GLGSV,2,2,08,78,11,341,,85,26,114,36,86,73,052,34,87,32,316,34*6B
$GNGLL,4555.96125,N,06639.14132,W,175834.00,A,A*6E
$GNRMC,175835.00,A,4555.96081,N,06639.14029,W,2.937,126.62,060917,,,A*6B
$GNVTG,126.62,T,,M,2.937,N,5.440,K,A*28
$GNGGA,175835.00,4555.96081,N,06639.14029,W,1,12,0.74,112.9,M,-26.0,M,,*7C
$GNGSA,A,3,06,02,19,12,09,17,05,23,25,51,,,1.48,0.74,1.28*1E
$GNGSA,A,3,86,71,85,77,87,72,,,,,,,1.48,0.74,1.28*16
$GPGSV,4,1,13,02,62,296,31,05,27,221,33,06,64,064,34,09,34,082,41*76
$GPGSV,4,2,13,12,37,263,35,17,21,140,34,19,42,140,38,23,22,052,35*7C
$GPGSV,4,3,13,25,25,304,32,29,03,314,15,46,30,221,27,48,08,253,*75
$GPGSV,4,4,13,51,24,230,27*4D
$GLGSV,2,1,08,70,35,038,26,71,72,123,27,72,31,191,22,77,11,288,22*6A
$GLGSV,2,2,08,78,11,341,,85,26,114,41,86,73,052,30,87,32,316,35*6E
$GNGLL,4555.96081,N,06639.14029,W,175835.00,A,A*6B
$GNRMC,175836.00,A,4555.96043,N,06639.13929,W,2.713,122.29,060917,,,A*6B
$GNVTG,122.29,T,,M,2.713,N,5.024,K,A*2D
$GNGGA,175836.00,4555.96043,N,06639.13929,W,1,12,0.70,113.1,M,-26.0,M,,*72
$GNGSA,A,3,06,02,19,12,09,17,05,23,25,46,,,1.46,0.70,1.28*12
$GNGSA,A,3,86,71,85,77,87,72,,,,,,,1.46,0.70,1.28*1C
$GPGSV,4,1,13,02,62,296,31,05,27,221,29,06,64,064,40,09,34,082,44*7B
$GPGSV,4,2,13,12,37,263,32,17,21,140,36,19,42,140,28,23,22,052,31*7C
$GPGSV,4,3,13,25,25,304,32,29,03,314,15,46,30,221,27,48,08,253,*75
$GPGSV,4,4,13,51,24,230,*48
$GLGSV,2,1,08,70,35,038,27,71,72,123,36,72,31,191,22,77,11,288,22*6B
$GLGSV,2,2,08,78,11,341,,85,26,114,34,86,73,052,37,87,32,316,31*6F
$GNGLL,4555.96043,N,06639.13929,W,175836.00,A,A*68
$GNRMC,175837.00,A,4555.96005,N,06639.13823,W,3.018,121.86,060917,,,A*68
$GNVTG,121.86,T,,M,3.018,N,5.589,K,A*24
$GNGGA,175837.00,4555.96005,N,06639.13823,W,1,12,0.71,113.3,M,-26.0,M,,*79
$GNGSA,A,3,06,02,19,12,09,17,05,23,25,46,,,1.35,0.71,1.15*19
$GNGSA,A,3,86,71,85,77,87,72,,,,,,,1.35,0.71,1.15*17
$GPGSV,4,1,13,02,62,296,32,05,27,221,29,06,64,064,34,09,34,081,38*73
$GPGSV,4,2,13,12,37,263,32,17,21,140,28,19,42,140,33,23,22,052,27*7E
$GPGSV,4,3,13,25,25,304,32,29,03,314,17,46,30,221,27,48,08,253,*77
$GPGSV,4,4,13,51,24,230,*48
$GLGSV,2,1,08,70,35,038,26,71,72,123,35,72,31,191,23,77,11,288,23*69
$GLGSV,2,2,08,78,11,341,,85,26,114,31,86,73,052,30,87,32,316,35*69
$GNGLL,4555.96005,N,06639.13823,W,175837.00,A,A*60
$GNRMC,175838.00,A,4555.95960,N,06639.13721,W,2.950,123.05,060917,,,A*6E
$GNVTG,123.05,T,,M,2.950,N,5.463,K,A*2C
$GNGGA,175838.00,4555.95960,N,06639.13721,W,1,12,0.74,113.6,M,-26.0,M,,*72
$GNGSA,A,3,06,02,19,12,09,17,05,23,25,,,,1.48,0.74,1.28*1A
$GNGSA,A,3,86,71,85,77,87,72,,,,,,,1.48,0.74,1.28*16
$GPGSV,4,1,13,02,62,296,31,05,27,221,30,06,64,064,37,09,34,081,40*74
$GPGSV,4,2,13,12,37,263,33,17,21,140,34,19,42,140,30,23,22,052,36*71
$GPGSV,4,3,13,25,25,304,32,29,03,314,16,46,30,221,,48,08,253,*73
$GPGSV,4,4,13,51,24,230,*48
$GLGSV,2,1,08,70,35,038,27,71,72,123,33,72,31,191,23,77,11,288,23*6E
$GLGSV,2,2,08,78,11,341,,85,26,114,37,86,73,052,29,87,32,316,33*61
$GNGLL,4555.95960,N,06639.13721,W,175838.00,A,A*6B
$GNRMC,175839.00,A,4555.95927,N,06639.13640,W,1.993,121.02,060917,,,A*63
$GNVTG,121.02,T,,M,1.993,N,3.691,K,A*2C
$GNGGA,175839.00,4555.95927,N,06639.13640,W,1,12,0.71,113.5,M,-26.0,M,,*70
$GNGSA,A,3,06,02,19,12,09,17,05,23,25,,,,1.35,0.71,1.15*1B
$GNGSA,A,3,86,71,85,77,87,72,,,,,,,1.35,0.71,1.15*17
$GPGSV,4,1,13,02,62,296,30,05,27,221,33,06,64,064,43,09,34,081,44*71
$GPGSV,4,2,13,12,37,263,27,17,21,140,33,19,42,140,22,23,22,052,36*70
$GPGSV,4,3,13,25,25,304,32,29,03,314,17,46,30,221,,48,08,253,*72
$GPGSV,4,4,13,51,24,230,*48
$GLGSV,2,1,08,70,35,038,25,71,72,123,36,72,31,191,21,77,11,288,23*6B
$GLGSV,2,2,08,78,11,341,,85,26,114,31,86,73,052,36,87,32,316,29*62
$GNGLL,4555.95927,N,06639.13640,W,175839.00,A,A*6F
$GNRMC,175840.00,A,4555.95913,N,06639.13557,W,2.048,114.78,060917,,,A*68
$GNVTG,114.78,T,,M,2.048,N,3.792,K,A*29
$GNGGA,175840.00,4555.95913,N,06639.13557,W,1,12,0.71,113.2,M,-26.0,M,,*7B
$GNGSA,A,3,06,02,19,12,09,17,05,23,25,,,,1.35,0.71,1.15*1B
$GNGSA,A,3,86,71,85,77,87,72,,,,,,,1.35,0.71,1.15*17
$GPGSV,4,1,13,02,62,296,24,05,27,221,35,06,64,064,42,09,34,081,46*71
$GPGSV,4,2,13,12,37,262,27,17,21,140,33,19,42,140,27,23,22,052,38*7A
$GPGSV,4,3,13,25,25,304,31,29,03,314,19,46,30,221,,48,08,253,*7F
$GPGSV,4,4,13,51,24,230,*48
$GLGSV,2,1,08,70,35,038,21,71,72,123,36,72,31,191,20,77,11,288,24*69
$GLGSV,2,2,08,78,11,341,,85,26,114,30,86,73,052,38,87,32,316,36*63
$GNGLL,4555.95913,N,06639.13557,W,175840.00,A,A*63
$GNRMC,175841.00,A,4555.95876,N,06639.13513,W,1.415,130.15,060917,,,A*69
$GNVTG,130.15,T,,M,1.415,N,2.621,K,A*23
$GNGGA,175841.00,4555.95876,N,06639.13513,W,1,12,0.71,113.2,M,-26.0,M,,*78
$GNGSA,A,3,06,02,19,12,09,17,05,23,25,,,,1.35,0.71,1.15*1B
$GNGSA,A,3,86,71,85,77,87,72,,,,,,,1.35,0.71,1.15*17
$GPGSV,4,1,13,02,62,296,36,05,27,221,29,06,64,064,25,09,34,081,40*78
$GPGSV,4,2,13,12,37,262,36,17,21,140,43,19,42,140,38,23,22,052,40*7C
$GPGSV,4,3,13,25,25,304,29,29,03,314,20,46,30,221,,48,08,253,*7C
$GPGSV,4,4,13,51,24,230,27*4D
$GLGSV,2,1,08,70,35,038,20,71,72,123,33,72,31,191,22,77,11,288,23*68
$GLGSV,2,2,08,78,11,341,,85,26,114,38,86,73,052,29,87,32,316,29*65
$GNGLL,4555.95876,N,06639.13513,W,175841.00,A,A*60
$GNRMC,175842.00,A,4555.95847,N,06639.13473,W,1.548,138.45,060917,,,A*6B
$GNVTG,138.45,T,,M,1.548,N,2.867,K,A*2B
$GNGGA,175842.00,4555.95847,N,06639.13473,W,1,12,0.73,112.8,M,-26.0,M,,*77
$GNGSA,A,3,06,02,19,12,09,17,05,23,25,51,,,1.35,0.73,1.14*1C
$GNGSA,A,3,86,71,85,77,87,72,,,,,,,1.35,0.73,1.14*14
$GPGSV,4,1,13,02,62,296,37,05,27,221,33,06,64,064,35,09,34,081,39*7D
$GPGSV,4,2,13,12,37,262,31,17,21,140,43,19,42,140,39,23,22,052,37*7A
$GPGSV,4,3,13,25,25,304,30,29,03,314,18,46,30,221,,48,08,253,*7F
$GPGSV,4,4,13,51,24,230,32*49
$GLGSV,2,1,08,70,35,038,20,71,72,123,35,72,31,191,29,77,11,288,22*64
$GLGSV,2,2,08,78,11,341,,85,26,114,34,86,73,052,37,87,32,316,29*66
$GNGLL,4555.95847,N,06639.13473,W,175842.00,A,A*66
$GNRMC,175843.00,A,4555.95819,N,06639.13398,W,2.187,121.27,060917,,,A*6B
$GNVTG,121.27,T,,M,2.187,N,4.051,K,A*28
$GNGGA,175843.00,4555.95819,N,06639.13398,W,1,12,0.68,112.9,M,-26.0,M,,*74
$GNGSA,A,3,06,02,19,12,09,17,05,23,25,51,,,1.33,0.68,1.14*10
$GNGSA,A,3,86,71,85,77,87,72,,,,,,,1.33,0.68,1.14*18
$GPGSV,4,1,13,02,62,296,34,05,27,221,28,06,64,064,40,09,34,081,40*78
$GPGSV,4,2,13,12,37,262,29,17,21,140,36,19,42,140,33,23,22,052,37*7B
$GPGSV,4,3,13,25,25,304,33,29,03,314,19,46,30,221,,48,08,253,*7D
$GPGSV,4,4,13,51,24,230,27*4D
$GLGSV,2,1,08,70,35,038,20,71,72,123,33,72,31,191,28,77,11,288,21*60
$GLGSV,2,2,08,78,11,341,,85,26,114,39,86,73,052,36,87,32,316,33*61
$GNGLL,4555.95819,N,06639.13398,W,175843.00,A,A*6E
$GNRMC,175844.00,A,4555.95770,N,06639.13302,W,3.179,128.75,060917,,,A*61
$GNVTG,128.75,T,,M,3.179,N,5.887,K,A*24
$GNGGA,175844.00,4555.95770,N,06639.13302,W,1,12,0.68,113.3,M,-26.0,M,,*7B
$GNGSA,A,3,06,02,19,12,09,17,05,23,25,51,,,1.33,0.68,1.14*10
$GNGSA,A,3,86,71,85,77,87,72,,,,,,,1.33,0.68,1.14*18
$GPGSV,4,1,13,02,62,296,30,05,27,221,34,06,64,064,33,09,34,081,36*74
$GPGSV,4,2,13,12,37,262,35,17,21,140,29,19,42,140,28,23,22,052,36*73
$GPGSV,4,3,13,25,25,304,32,29,03,314,20,46,30,221,,48,08,253,*76
$GPGSV,4,4,13,51,24,230,28*42
$GLGSV,2,1,08,70,35,038,23,71,72,123,34,72,31,191,28,77,11,288,23*66
$GLGSV,2,2,08,78,11,341,,85,26,114,39,86,73,052,32,87,32,316,29*6E
$GNGLL,4555.95770,N,06639.13302,W,175844.00,A,A*6A
$GNRMC,175845.00,A,4555.95736,N,06639.13190,W,3.044,122.89,060917,,,A*6D
$GNVTG,122.89,T,,M,3.044,N,5.638,K,A*28
$GNGGA,175845.00,4555.95736,N,06639.13190,W,1,12,0.71,113.3,M,-26.0,M,,*79
$GNGSA,A,3,06,02,19,12,09,17,05,23,25,51,,,1.44,0.71,1.26*19
$GNGSA,A,3,86,71,85,77,87,72,,,,,,,1.44,0.71,1.26*11
$GPGSV,4,1,13,02,62,296,30,05,27,221,25,06,64,064,37,09,34,081,45*74
$GPGSV,4,2,13,12,37,262,25,17,21,140,34,19,42,140,29,23,22,052,30*79
$GPGSV,4,3,13,25,25,304,32,29,03,314,21,46,30,221,,48,08,253,*77
$GPGSV,4,4,13,51,24,230,27*4D
$GLGSV,2,1,08,70,35,038,24,71,72,123,30,72,31,191,28,77,11,288,23*65
$GLGSV,2,2,08,78,11,341,,85,26,114,23,86,73,052,31,87,32,316,29*66
$GNGLL,4555.95736,N,06639.13190,W,175845.00,A,A*60
$GNRMC,175846.00,A,4555.95700,N,06639.13083,W,2.909,119.90,060917,,,A*69
$GNVTG,119.90,T,,M,2.909,N,5.388,K,A*27
$GNGGA,175846.00,4555.95700,N,06639.13083,W,1,12,0.74,113.6,M,-26.0,M,,*7C
$GNGSA,A,3,06,02,19,12,09,17,05,23,25,,,,1.48,0.74,1.28*1A
$GNGSA,A,3,86,71,85,77,87,72,,,,,,,1.48,0.74,1.28*16
$GPGSV,4,1,13,02,62,296,29,05,27,221,34,06,64,064,25,09,34,081,38*75
$GPGSV,4,2,13,12,37,262,30,17,21,140,24,19,42,140,33,23,22,052,38*7F
$GPGSV,4,3,13,25,25,304,32,29,03,314,21,46,30,221,,48,08,253,*77
$GPGSV,4,4,13,51,24,230,*48
$GLGSV,2,1,08,70,35,038,22,71,72,123,23,72,31,191,27,77,11,288,23*6E
$GLGSV,2,2,08,78,11,341,,85,26,114,30,86,73,052,27,87,32,316,31*6A
$GNGLL,4555.95700,N,06639.13083,W,175846.00,A,A*65
$GNRMC,175847.00,A,4555.95663,N,06639.12982,W,2.884,121.93,060917,,,A*69
$GNVTG,121.93,T,,M,2.884,N,5.340,K,A*2F
$GNGGA,175847.00,4555.95663,N,06639.12982,W,1,12,0.74,113.3,M,-26.0,M,,*75
$GNGSA,A,3,06,02,19,12,09,17,05,23,25,,,,1.48,0.74,1.28*1A
$GNGSA,A,3,86,71,85,77,87,72,,,,,,,1.48,0.74,1.28*16
$GPGSV,4,1,13,02,62,296,21,05,27,221,36,06,64,064,32,09,34,081,37*76
$GPGSV,4,2,13,12,37,262,30,17,21,140,34,19,42,140,38,23,22,052,33*7E
$GPGSV,4,3,13,25,25,304,30,29,03,314,21,46,30,221,,48,08,253,*75
$GPGSV,4,4,13,51,24,230,28*42
$GLGSV,2,1,08,70,35,038,22,71,72,123,27,72,31,191,26,77,11,288,22*6A
$GLGSV,2,2,08,78,11,341,,85,26,114,30,86,73,052,27,87,32,316,35*6E
$GNGLL,4555.95663,N,06639.12982,W,175847.00,A,A*69
$GNRMC,175848.00,A,4555.95629,N,06639.12896,W,2.227,122.57,060917,,,A*64
$GNVTG,122.57,T,,M,2.227,N,4.124,K,A*26
$GNGGA,175848.00,4555.95629,N,06639.12896,W,1,12,0.71,113.3,M,-26.0,M,,*75
$GNGSA,A,3,06,02,19,12,09,17,05,23,25,51,,,1.44,0.71,1.26*19
$GNGSA,A,3,86,71,85,77,87,72,,,,,,,1.44,0.71,1.26*11
$GPGSV,4,1,13,02,62,296,30,05,27,221,33,06,64,064,32,09,34,081,41*72
$GPGSV,4,2,13,12,37,262,29,17,21,140,31,19,42,140,31,23,22,052,35*7C
$GPGSV,4,3,13,25,25,304,29,29,03,314,23,46,30,221,,48,08,253,*7F
$GPGSV,4,4,13,51,24,230,28*42
$GLGSV,2,1,08,70,35,038,22,71,72,123,32,72,31,191,31,77,11,288,20*6A
$GLGSV,2,2,08,78,11,341,,85,26,114,30,86,73,052,31,87,32,316,31*6D
$GNGLL,4555.95629,N,06639.12896,W,175848.00,A,A*6C
$GNRMC,175849.00,A,4555.95609,N,06639.12779,W,3.226,109.09,060917,,,A*6B
$GNVTG,109.09,T,,M,3.226,N,5.975,K,A*29
$GNGGA,175849.00,4555.95609,N,06639.12779,W,1,12,0.75,113.8,M,-26.0,M,,*77
$GNGSA,A,3,06,02,19,12,09,17,05,23,25,51,,,1.47,0.75,1.26*1E
$GNGSA,A,3,86,71,85,77,87,72,,,,,,,1.47,0.75,1.26*16
$GPGSV,4,1,13,02,62,296,30,05,27,221,29,06,64,064,38,09,34,081,33*76
$GPGSV,4,2,13,12,37,262,29,17,21,140,31,19,42,140,37,23,22,052,36*79
$GPGSV,4,3,13,25,25,304,32,29,03,314,23,46,30,221,,48,08,253,*75
$GPGSV,4,4,13,51,24,230,33*48
$GLGSV,2,1,08,70,35,038,21,71,72,123,35,72,31,191,31,77,11,288,22*6C
$GLGSV,2,2,08,78,11,341,,85,26,114,39,86,73,052,32,87,32,316,35*63
$GNGLL,4555.95609,N,06639.12779,W,175849.00,A,A*61
$GNRMC,175850.00,A,4555.95575,N,06639.12670,W,2.923,114.95,060917,,,A*65
$GNVTG,114.95,T,,M,2.923,N,5.413,K,A*22
$GNGGA,175850.00,4555.95575,N,06639.12670,W,1,12,0.71,113.6,M,-26.0,M,,*75
$GNGSA,A,3,06,02,19,12,09,17,05,23,25,51,,,1.44,0.71,1.26*19
$GNGSA,A,3,86,71,85,77,87,72,,,,,,,1.44,0.71,1.26*11
$GPGSV,4,1,13,02,62,296,30,05,27,221,25,06,64,064,40,09,34,081,40*71
$GPGSV,4,2,13,12,37,262,27,17,21,140,30,19,42,140,35,23,22,051,33*72
$GPGSV,4,3,13,25,25,304,32,29,03,314,22,46,30,221,29,48,08,253,*7F
$GPGSV,4,4,13,51,24,230,28*42
$GLGSV,2,1,08,70,35,038,20,71,72,123,36,72,31,191,26,77,11,288,23*69
$GLGSV,2,2,08,78,11,341,,85,26,114,35,86,73,052,32,87,32,316,32*68
$GNGLL,4555.95575,N,06639.12670,W,175850.00,A,A*69
$GNRMC,175851.00,A,4555.95532,N,06639.12569,W,2.798,118.63,060917,,,A*67
$GNVTG,118.63,T,,M,2.798,N,5.181,K,A*27
$GNGGA,175851.00,4555.95532,N,06639.12569,W,1,12,0.68,113.5,M,-26.0,M,,*77
$GNGSA,A,3,06,02,19,12,09,17,05,23,25,46,51,,1.33,0.68,1.14*12
$GNGSA,A,3,86,71,85,77,87,72,,,,,,,1.33,0.68,1.14*18
$GPGSV,4,1,13,02,62,296,30,05,27,221,31,06,64,064,38,09,34,081,37*7B
$GPGSV,4,2,13,12,37,262,33,17,21,140,39,19,42,140,38,23,22,051,33*73
$GPGSV,4,3,13,25,25,304,32,29,03,314,21,46,30,221,28,48,08,253,*7D
$GPGSV,4,4,13,51,24,230,32*49
